{
"type": "FeatureCollection",
"name": "TEIGN_43_toilets",
"crs": { "type": "name", "properties": { "name": "urn:ogc:def:crs:OGC:1.3:CRS84" } },
"features": [
{ "type": "Feature", "properties": { "name": "Eastcliff Car Park Public Toilets", "payment_info": "Free", "accessible": "False", "radar": "Unknown", "women": "True", "men": "True", "baby_change": "Unknown", "Mon": "09:00-19:00", "Tue": "09:00-19:00", "Wed": "09:00-19:00", "Thu": "09:00-19:00", "Fri": "09:00-19:00", "Sat": "09:00-19:00", "Sun": "09:00-19:00", "index_right": 48, "park_offical_id": "TEIGN_43" }, "geometry": { "type": "Point", "coordinates": [ -3.4921428, 50.5490987 ] } },
{ "type": "Feature", "properties": { "name": "Jubilee Shelter", "payment_info": "Free", "accessible": "False", "radar": "Unknown", "women": "True", "men": "True", "baby_change": "Unknown", "Mon": "08:00-18:00", "Tue": "08:00-18:00", "Wed": "08:00-18:00", "Thu": "08:00-18:00", "Fri": "08:00-18:00", "Sat": "08:00-18:00", "Sun": "08:00-18:00", "index_right": 48, "park_offical_id": "TEIGN_43" }, "geometry": { "type": "Point", "coordinates": [ -3.4905998, 50.5487126 ] } },
{ "type": "Feature", "properties": { "name": "Lower Brook Street", "payment_info": "Free", "accessible": "False", "radar": "Unknown", "women": "True", "men": "True", "baby_change": "Unknown", "Mon": "Unknown", "Tue": "Unknown", "Wed": "Unknown", "Thu": "Unknown", "Fri": "Unknown", "Sat": "Unknown", "Sun": "Unknown", "index_right": 48, "park_offical_id": "TEIGN_43" }, "geometry": { "type": "Point", "coordinates": [ -3.4949571, 50.5471866 ] } },
{ "type": "Feature", "properties": { "name": "Eastcliff", "payment_info": "Free", "accessible": "False", "radar": "Unknown", "women": "True", "men": "True", "baby_change": "Unknown", "Mon": "Unknown", "Tue": "Unknown", "Wed": "Unknown", "Thu": "Unknown", "Fri": "Unknown", "Sat": "Unknown", "Sun": "Unknown", "index_right": 48, "park_offical_id": "TEIGN_43" }, "geometry": { "type": "Point", "coordinates": [ -3.4896274, 50.5504346 ] } },
{ "type": "Feature", "properties": { "name": "Lidl", "payment_info": "Free", "accessible": "False", "radar": "Unknown", "women": "True", "men": "True", "baby_change": "Unknown", "Mon": "Unknown", "Tue": "Unknown", "Wed": "Unknown", "Thu": "Unknown", "Fri": "Unknown", "Sat": "Unknown", "Sun": "Unknown", "index_right": 48, "park_offical_id": "TEIGN_43" }, "geometry": { "type": "Point", "coordinates": [ -3.495653272, 50.547544675 ] } }
]
}
