{
"type": "FeatureCollection",
"name": "BATNO_56_toilets",
"crs": { "type": "name", "properties": { "name": "urn:ogc:def:crs:OGC:1.3:CRS84" } },
"features": [
{ "type": "Feature", "properties": { "name": "Seven Dials", "payment_info": "20p", "accessible": "False", "radar": "False", "women": "False", "men": "False", "baby_change": "False", "Mon": "00:00-00:00", "Tue": "00:00-00:00", "Wed": "00:00-00:00", "Thu": "00:00-00:00", "Fri": "00:00-00:00", "Sat": "00:00-00:00", "Sun": "00:00-00:00", "index_right": 80, "park_offical_id": "BATNO_56" }, "geometry": { "type": "Point", "coordinates": [ -2.363101244, 51.381716907 ] } },
{ "type": "Feature", "properties": { "name": "Unknown", "payment_info": "Free", "accessible": "False", "radar": "True", "women": "True", "men": "True", "baby_change": "False", "Mon": "Unknown", "Tue": "Unknown", "Wed": "Unknown", "Thu": "Unknown", "Fri": "Unknown", "Sat": "Unknown", "Sun": "Unknown", "index_right": 80, "park_offical_id": "BATNO_56" }, "geometry": { "type": "Point", "coordinates": [ -2.358884811, 51.381450733 ] } },
{ "type": "Feature", "properties": { "name": "Parade Gardens", "payment_info": "20p", "accessible": "True", "radar": "False", "women": "True", "men": "True", "baby_change": "True", "Mon": "07:00-21:00", "Tue": "07:00-21:00", "Wed": "07:00-21:00", "Thu": "07:00-21:00", "Fri": "07:00-21:00", "Sat": "07:00-21:00", "Sun": "Closed", "index_right": 80, "park_offical_id": "BATNO_56" }, "geometry": { "type": "Point", "coordinates": [ -2.357296944, 51.381785543 ] } },
{ "type": "Feature", "properties": { "name": "Charlotte Street car park entrance PC", "payment_info": "20p", "accessible": "True", "radar": "False", "women": "True", "men": "True", "baby_change": "True", "Mon": "07:00-21:00", "Tue": "07:00-21:00", "Wed": "07:00-21:00", "Thu": "07:00-21:00", "Fri": "07:00-21:00", "Sat": "07:00-21:00", "Sun": "07:00-21:00", "index_right": 80, "park_offical_id": "BATNO_56" }, "geometry": { "type": "Point", "coordinates": [ -2.36552634, 51.383533302 ] } },
{ "type": "Feature", "properties": { "name": "First Bus Station", "payment_info": "Free", "accessible": "True", "radar": "Unknown", "women": "True", "men": "True", "baby_change": "Unknown", "Mon": "Unknown", "Tue": "Unknown", "Wed": "Unknown", "Thu": "Unknown", "Fri": "Unknown", "Sat": "Unknown", "Sun": "Unknown", "index_right": 80, "park_offical_id": "BATNO_56" }, "geometry": { "type": "Point", "coordinates": [ -2.35945344, 51.377896579 ] } },
{ "type": "Feature", "properties": { "name": "The Podium  Waitrose", "payment_info": "Free", "accessible": "True", "radar": "Unknown", "women": "True", "men": "True", "baby_change": "Unknown", "Mon": "08:00-17:15", "Tue": "08:00-17:15", "Wed": "08:00-17:15", "Thu": "08:15-17:15", "Fri": "08:15-17:15", "Sat": "08:15-17:15", "Sun": "10:00-17:00", "index_right": 80, "park_offical_id": "BATNO_56" }, "geometry": { "type": "Point", "coordinates": [ -2.359431982, 51.383928884 ] } },
{ "type": "Feature", "properties": { "name": "Charlotte Street Car Park", "payment_info": "20p", "accessible": "True", "radar": "False", "women": "True", "men": "True", "baby_change": "True", "Mon": "09:00-18:00", "Tue": "09:00-18:00", "Wed": "09:00-18:00", "Thu": "09:00-18:00", "Fri": "09:00-18:00", "Sat": "09:00-18:00", "Sun": "09:00-18:00", "index_right": 80, "park_offical_id": "BATNO_56" }, "geometry": { "type": "Point", "coordinates": [ -2.3688413, 51.38488036 ] } },
{ "type": "Feature", "properties": { "name": "Sainsburys", "payment_info": "Free", "accessible": "True", "radar": "Unknown", "women": "True", "men": "True", "baby_change": "True", "Mon": "09:00-17:00", "Tue": "09:00-17:00", "Wed": "09:00-17:00", "Thu": "09:00-17:00", "Fri": "09:00-17:00", "Sat": "09:00-17:00", "Sun": "09:00-17:00", "index_right": 80, "park_offical_id": "BATNO_56" }, "geometry": { "type": "Point", "coordinates": [ -2.366663218, 51.381695145 ] } },
{ "type": "Feature", "properties": { "name": "Southgate Plaza", "payment_info": "Free", "accessible": "False", "radar": "Unknown", "women": "True", "men": "True", "baby_change": "True", "Mon": "08:00-18:00", "Tue": "08:00-18:00", "Wed": "08:00-18:00", "Thu": "08:00-18:00", "Fri": "08:00-18:00", "Sat": "08:00-18:00", "Sun": "Closed", "index_right": 80, "park_offical_id": "BATNO_56" }, "geometry": { "type": "Point", "coordinates": [ -2.35762146, 51.3787215 ] } },
{ "type": "Feature", "properties": { "name": "Henrietta Park", "payment_info": "20p", "accessible": "True", "radar": "Unknown", "women": "True", "men": "True", "baby_change": "True", "Mon": "07:00-18:00", "Tue": "07:00-18:00", "Wed": "07:00-18:00", "Thu": "07:00-18:00", "Fri": "07:00-18:00", "Sat": "07:00-18:00", "Sun": "07:00-18:00", "index_right": 80, "park_offical_id": "BATNO_56" }, "geometry": { "type": "Point", "coordinates": [ -2.3558107, 51.3850454 ] } },
{ "type": "Feature", "properties": { "name": "Bath Spa Station", "payment_info": "Free", "accessible": "True", "radar": "False", "women": "True", "men": "True", "baby_change": "True", "Mon": "09:00-17:00", "Tue": "09:00-17:00", "Wed": "09:00-17:00", "Thu": "09:00-17:00", "Fri": "09:00-17:00", "Sat": "09:00-17:00", "Sun": "09:00-17:00", "index_right": 80, "park_offical_id": "BATNO_56" }, "geometry": { "type": "Point", "coordinates": [ -2.3569862, 51.3776473 ] } }
]
}
