{
"type": "FeatureCollection",
"name": "BRIST_120_toilets",
"crs": { "type": "name", "properties": { "name": "urn:ogc:def:crs:OGC:1.3:CRS84" } },
"features": [
{ "type": "Feature", "properties": { "name": "ASDA Bedminster", "payment_info": "Free", "accessible": "False", "radar": "Unknown", "women": "True", "men": "True", "baby_change": "Unknown", "Mon": "07:00-22:00", "Tue": "07:00-22:00", "Wed": "07:00-22:00", "Thu": "07:00-22:00", "Fri": "07:00-22:00", "Sat": "07:00-21:00", "Sun": "10:00-16:00", "index_right": 25, "park_offical_id": "BRIST_120" }, "geometry": { "type": "Point", "coordinates": [ -2.594809234, 51.443623 ] } },
{ "type": "Feature", "properties": { "name": "Watershed1 Cannons Road Harbourside Bristol BS1 5TX ", "payment_info": "Free", "accessible": "True", "radar": "Unknown", "women": "True", "men": "True", "baby_change": "True", "Mon": "09:00-23:00", "Tue": "09:00-23:00", "Wed": "09:00-23:00", "Thu": "09:00-23:00", "Fri": "09:00-23:00", "Sat": "10:00-23:00", "Sun": "10:00-23:00", "index_right": 25, "park_offical_id": "BRIST_120" }, "geometry": { "type": "Point", "coordinates": [ -2.598097622, 51.451756385 ] } },
{ "type": "Feature", "properties": { "name": "Millennium Square Car Park Public Toilets", "payment_info": "Free", "accessible": "True", "radar": "False", "women": "Unknown", "men": "Unknown", "baby_change": "True", "Mon": "Unknown", "Tue": "Unknown", "Wed": "Unknown", "Thu": "Unknown", "Fri": "Unknown", "Sat": "Unknown", "Sun": "Unknown", "index_right": 25, "park_offical_id": "BRIST_120" }, "geometry": { "type": "Point", "coordinates": [ -2.600133419, 51.449346812 ] } },
{ "type": "Feature", "properties": { "name": "Windmill Hill City Farm Phillips Street BS3 4EA ", "payment_info": "Free", "accessible": "True", "radar": "False", "women": "True", "men": "True", "baby_change": "False", "Mon": "09:00-17:00", "Tue": "09:00-17:00", "Wed": "09:00-17:00", "Thu": "09:00-17:00", "Fri": "09:00-17:00", "Sat": "09:00-17:00", "Sun": "09:00-17:00", "index_right": 25, "park_offical_id": "BRIST_120" }, "geometry": { "type": "Point", "coordinates": [ -2.592784081, 51.442146062 ] } },
{ "type": "Feature", "properties": { "name": "Watershed", "payment_info": "Cost unknown", "accessible": "False", "radar": "False", "women": "True", "men": "True", "baby_change": "True", "Mon": "09:00-17:00", "Tue": "09:00-17:00", "Wed": "09:00-17:00", "Thu": "09:00-17:00", "Fri": "09:00-17:00", "Sat": "09:00-17:00", "Sun": "09:00-17:00", "index_right": 25, "park_offical_id": "BRIST_120" }, "geometry": { "type": "Point", "coordinates": [ -2.598102987, 51.451753809 ] } },
{ "type": "Feature", "properties": { "name": "The Hole In The Wall 2 The Grove Bristol BS1 4QZ ", "payment_info": "Free", "accessible": "True", "radar": "False", "women": "True", "men": "True", "baby_change": "True", "Mon": "12:00-23:00", "Tue": "12:00-23:00", "Wed": "12:00-23:00", "Thu": "12:00-23:00", "Fri": "12:00-23:00", "Sat": "12:00-23:00", "Sun": "12:00-22:00", "index_right": 25, "park_offical_id": "BRIST_120" }, "geometry": { "type": "Point", "coordinates": [ -2.593403757, 51.449476546 ] } },
{ "type": "Feature", "properties": { "name": "Victoria Park WC", "payment_info": "Free", "accessible": "False", "radar": "Unknown", "women": "True", "men": "True", "baby_change": "Unknown", "Mon": "Unknown", "Tue": "Unknown", "Wed": "Unknown", "Thu": "Unknown", "Fri": "Unknown", "Sat": "Unknown", "Sun": "Unknown", "index_right": 25, "park_offical_id": "BRIST_120" }, "geometry": { "type": "Point", "coordinates": [ -2.589814, 51.44006 ] } },
{ "type": "Feature", "properties": { "name": "Windmill Hill City Farm Phillips Street BS3 4EA ", "payment_info": "Free", "accessible": "True", "radar": "False", "women": "True", "men": "True", "baby_change": "False", "Mon": "09:00-17:00", "Tue": "09:00-17:00", "Wed": "09:00-17:00", "Thu": "09:00-17:00", "Fri": "09:00-17:00", "Sat": "09:00-17:00", "Sun": "09:00-17:00", "index_right": 25, "park_offical_id": "BRIST_120" }, "geometry": { "type": "Point", "coordinates": [ -2.592784081, 51.442146062 ] } },
{ "type": "Feature", "properties": { "name": "M Shed", "payment_info": "Free", "accessible": "True", "radar": "Unknown", "women": "True", "men": "True", "baby_change": "True", "Mon": "Closed", "Tue": "10:00-17:00", "Wed": "10:00-17:00", "Thu": "10:00-17:00", "Fri": "10:00-17:00", "Sat": "10:00-17:00", "Sun": "10:00-17:00", "index_right": 25, "park_offical_id": "BRIST_120" }, "geometry": { "type": "Point", "coordinates": [ -2.598280013, 51.447618377 ] } },
{ "type": "Feature", "properties": { "name": "Windmill Hill City Farm Phillips Street BS3 4EA ", "payment_info": "Free", "accessible": "True", "radar": "False", "women": "True", "men": "True", "baby_change": "False", "Mon": "09:00-17:00", "Tue": "09:00-17:00", "Wed": "09:00-17:00", "Thu": "09:00-17:00", "Fri": "09:00-17:00", "Sat": "09:00-17:00", "Sun": "09:00-17:00", "index_right": 25, "park_offical_id": "BRIST_120" }, "geometry": { "type": "Point", "coordinates": [ -2.592784081, 51.442146062 ] } },
{ "type": "Feature", "properties": { "name": "Victoria Park Somerset Terrace Bedminster BS3 4LL ", "payment_info": "Free", "accessible": "True", "radar": "True", "women": "True", "men": "True", "baby_change": "Unknown", "Mon": "Unknown", "Tue": "Unknown", "Wed": "Unknown", "Thu": "Unknown", "Fri": "Unknown", "Sat": "Unknown", "Sun": "Unknown", "index_right": 25, "park_offical_id": "BRIST_120" }, "geometry": { "type": "Point", "coordinates": [ -2.589785579, 51.440044979 ] } },
{ "type": "Feature", "properties": { "name": "Coffee no 1 51 Welsh Back BS1 4AN", "payment_info": "Free", "accessible": "True", "radar": "False", "women": "True", "men": "True", "baby_change": "True", "Mon": "Unknown", "Tue": "Unknown", "Wed": "Unknown", "Thu": "Unknown", "Fri": "Unknown", "Sat": "Unknown", "Sun": "Unknown", "index_right": 25, "park_offical_id": "BRIST_120" }, "geometry": { "type": "Point", "coordinates": [ -2.592979968, 51.449778683 ] } },
{ "type": "Feature", "properties": { "name": "Mshed Princes Wharf Wapping Road BS1 4RN", "payment_info": "Free", "accessible": "True", "radar": "Unknown", "women": "True", "men": "True", "baby_change": "True", "Mon": "Closed", "Tue": "10:00-17:00", "Wed": "10:00-17:00", "Thu": "10:00-17:00", "Fri": "10:00-17:00", "Sat": "10:00-17:00", "Sun": "10:00-17:00", "index_right": 25, "park_offical_id": "BRIST_120" }, "geometry": { "type": "Point", "coordinates": [ -2.598269284, 51.447621412 ] } },
{ "type": "Feature", "properties": { "name": "Arnolfini", "payment_info": "Cost unknown", "accessible": "False", "radar": "Unknown", "women": "True", "men": "True", "baby_change": "True", "Mon": "Unknown", "Tue": "Unknown", "Wed": "Unknown", "Thu": "Unknown", "Fri": "Unknown", "Sat": "Unknown", "Sun": "Unknown", "index_right": 25, "park_offical_id": "BRIST_120" }, "geometry": { "type": "Point", "coordinates": [ -2.597296063, 51.449695751 ] } },
{ "type": "Feature", "properties": { "name": "Windmill Hill City Farm", "payment_info": "Free", "accessible": "False", "radar": "False", "women": "Unknown", "men": "Unknown", "baby_change": "True", "Mon": "09:00-17:00", "Tue": "09:00-17:00", "Wed": "09:00-17:00", "Thu": "09:00-17:00", "Fri": "09:00-17:00", "Sat": "09:00-17:00", "Sun": "09:00-17:00", "index_right": 25, "park_offical_id": "BRIST_120" }, "geometry": { "type": "Point", "coordinates": [ -2.592829764, 51.44211503 ] } },
{ "type": "Feature", "properties": { "name": "Bristol City Council Customer Service Point", "payment_info": "Free", "accessible": "False", "radar": "True", "women": "Unknown", "men": "Unknown", "baby_change": "True", "Mon": "Unknown", "Tue": "Unknown", "Wed": "Unknown", "Thu": "Unknown", "Fri": "Unknown", "Sat": "Unknown", "Sun": "Unknown", "index_right": 25, "park_offical_id": "BRIST_120" }, "geometry": { "type": "Point", "coordinates": [ -2.58648634, 51.449843266 ] } },
{ "type": "Feature", "properties": { "name": "Mshed Princes Wharf Wapping Road BS1 4RN", "payment_info": "Free", "accessible": "True", "radar": "Unknown", "women": "True", "men": "True", "baby_change": "True", "Mon": "Closed", "Tue": "10:00-17:00", "Wed": "10:00-17:00", "Thu": "10:00-17:00", "Fri": "10:00-17:00", "Sat": "10:00-17:00", "Sun": "10:00-17:00", "index_right": 25, "park_offical_id": "BRIST_120" }, "geometry": { "type": "Point", "coordinates": [ -2.598269284, 51.447621412 ] } },
{ "type": "Feature", "properties": { "name": "Victoria Park Somerset Terrace Bedminster BS3 4LL ", "payment_info": "Free", "accessible": "True", "radar": "True", "women": "True", "men": "True", "baby_change": "Unknown", "Mon": "Unknown", "Tue": "Unknown", "Wed": "Unknown", "Thu": "Unknown", "Fri": "Unknown", "Sat": "Unknown", "Sun": "Unknown", "index_right": 25, "park_offical_id": "BRIST_120" }, "geometry": { "type": "Point", "coordinates": [ -2.589785579, 51.440044979 ] } },
{ "type": "Feature", "properties": { "name": "Bedminster Library 4 St Peters Court Bedminster Parade Bedminster BS3 4AQ ", "payment_info": "Free", "accessible": "Unknown", "radar": "True", "women": "True", "men": "True", "baby_change": "False", "Mon": "10:00-19:00", "Tue": "Closed", "Wed": "10:00-19:00", "Thu": "10:00-17:00", "Fri": "10:00-17:00", "Sat": "10:00-17:00", "Sun": "Closed", "index_right": 25, "park_offical_id": "BRIST_120" }, "geometry": { "type": "Point", "coordinates": [ -2.593639622, 51.444280562 ] } },
{ "type": "Feature", "properties": { "name": "Bristol City Council Customer Service Point 100 Temple Street BS1 6AG ", "payment_info": "Free", "accessible": "True", "radar": "True", "women": "True", "men": "True", "baby_change": "True", "Mon": "09:00-16:45", "Tue": "09:00-16:45", "Wed": "10:00-16:45", "Thu": "09:00-16:45", "Fri": "09:00-16:45", "Sat": "Closed", "Sun": "Closed", "index_right": 25, "park_offical_id": "BRIST_120" }, "geometry": { "type": "Point", "coordinates": [ -2.586489022, 51.449881282 ] } }
]
}
