{
"type": "FeatureCollection",
"name": "BRIST_144_toilets",
"crs": { "type": "name", "properties": { "name": "urn:ogc:def:crs:OGC:1.3:CRS84" } },
"features": [
{ "type": "Feature", "properties": { "name": "Coffee1", "payment_info": "Free", "accessible": "True", "radar": "True", "women": "True", "men": "True", "baby_change": "True", "Mon": "Unknown", "Tue": "Unknown", "Wed": "Unknown", "Thu": "Unknown", "Fri": "Unknown", "Sat": "Unknown", "Sun": "Unknown", "index_right": 48, "park_offical_id": "BRIST_144" }, "geometry": { "type": "Point", "coordinates": [ -2.528649751, 51.480422769 ] } },
{ "type": "Feature", "properties": { "name": "The Old Post Office", "payment_info": "Free", "accessible": "True", "radar": "True", "women": "True", "men": "True", "baby_change": "True", "Mon": "Unknown", "Tue": "Unknown", "Wed": "Unknown", "Thu": "Unknown", "Fri": "Unknown", "Sat": "Unknown", "Sun": "Unknown", "index_right": 48, "park_offical_id": "BRIST_144" }, "geometry": { "type": "Point", "coordinates": [ -2.528612405, 51.480637642 ] } },
{ "type": "Feature", "properties": { "name": "Morrisons", "payment_info": "Free", "accessible": "False", "radar": "False", "women": "True", "men": "True", "baby_change": "True", "Mon": "09:00-17:00", "Tue": "09:00-17:00", "Wed": "09:00-17:00", "Thu": "09:00-17:00", "Fri": "09:00-17:00", "Sat": "09:00-17:00", "Sun": "09:00-17:00", "index_right": 48, "park_offical_id": "BRIST_144" }, "geometry": { "type": "Point", "coordinates": [ -2.532093823, 51.478703502 ] } },
{ "type": "Feature", "properties": { "name": "Wetherspoons Van Dyck Forum", "payment_info": "Free", "accessible": "False", "radar": "Unknown", "women": "Unknown", "men": "Unknown", "baby_change": "Unknown", "Mon": "Unknown", "Tue": "Unknown", "Wed": "Unknown", "Thu": "Unknown", "Fri": "Unknown", "Sat": "Unknown", "Sun": "Unknown", "index_right": 48, "park_offical_id": "BRIST_144" }, "geometry": { "type": "Point", "coordinates": [ -2.530277967, 51.479630617 ] } },
{ "type": "Feature", "properties": { "name": "Fishponds Library", "payment_info": "Free", "accessible": "True", "radar": "False", "women": "True", "men": "True", "baby_change": "True", "Mon": "Unknown", "Tue": "Unknown", "Wed": "Unknown", "Thu": "Unknown", "Fri": "Unknown", "Sat": "Unknown", "Sun": "Unknown", "index_right": 48, "park_offical_id": "BRIST_144" }, "geometry": { "type": "Point", "coordinates": [ -2.5331132, 51.477533813 ] } }
]
}
