{
"type": "FeatureCollection",
"name": "BRIST_283_toilets",
"crs": { "type": "name", "properties": { "name": "urn:ogc:def:crs:OGC:1.3:CRS84" } },
"features": [
{ "type": "Feature", "properties": { "name": "The Royal Oak", "payment_info": "Free", "accessible": "True", "radar": "False", "women": "True", "men": "True", "baby_change": "True", "Mon": "Unknown", "Tue": "Unknown", "Wed": "Unknown", "Thu": "Unknown", "Fri": "Unknown", "Sat": "Unknown", "Sun": "Unknown", "index_right": 130, "park_offical_id": "BRIST_283" }, "geometry": { "type": "Point", "coordinates": [ -2.58659631, 51.483429938 ] } },
{ "type": "Feature", "properties": { "name": "Boston Tea Party 293 Gloucester Road BS7 8PE", "payment_info": "Free", "accessible": "True", "radar": "Unknown", "women": "True", "men": "True", "baby_change": "True", "Mon": "08:00-17:00", "Tue": "08:00-17:00", "Wed": "08:00-17:00", "Thu": "08:00-17:00", "Fri": "08:00-17:00", "Sat": "08:00-17:00", "Sun": "09:00-17:00", "index_right": 130, "park_offical_id": "BRIST_283" }, "geometry": { "type": "Point", "coordinates": [ -2.588618672, 51.480304031 ] } },
{ "type": "Feature", "properties": { "name": "Better Food Company", "payment_info": "Free", "accessible": "True", "radar": "False", "women": "True", "men": "True", "baby_change": "True", "Mon": "08:00-20:00", "Tue": "08:00-20:00", "Wed": "08:00-20:00", "Thu": "08:00-20:00", "Fri": "08:00-20:00", "Sat": "08:00-20:00", "Sun": "10:00-18:00", "index_right": 130, "park_offical_id": "BRIST_283" }, "geometry": { "type": "Point", "coordinates": [ -2.588565027, 51.480853335 ] } },
{ "type": "Feature", "properties": { "name": "Lazz Lounge", "payment_info": "Free", "accessible": "Unknown", "radar": "Unknown", "women": "True", "men": "True", "baby_change": "Unknown", "Mon": "Unknown", "Tue": "Unknown", "Wed": "Unknown", "Thu": "Unknown", "Fri": "Unknown", "Sat": "Unknown", "Sun": "Unknown", "index_right": 130, "park_offical_id": "BRIST_283" }, "geometry": { "type": "Point", "coordinates": [ -2.588795722, 51.480698028 ] } },
{ "type": "Feature", "properties": { "name": "Tinto Lounge", "payment_info": "Free", "accessible": "Unknown", "radar": "Unknown", "women": "True", "men": "True", "baby_change": "Unknown", "Mon": "Unknown", "Tue": "Unknown", "Wed": "Unknown", "Thu": "Unknown", "Fri": "Unknown", "Sat": "Unknown", "Sun": "Unknown", "index_right": 130, "park_offical_id": "BRIST_283" }, "geometry": { "type": "Point", "coordinates": [ -2.587482137, 51.483015 ] } }
]
}
