{
"type": "FeatureCollection",
"name": "BRIST_26_toilets",
"crs": { "type": "name", "properties": { "name": "urn:ogc:def:crs:OGC:1.3:CRS84" } },
"features": [
{ "type": "Feature", "properties": { "name": "The Royal Oak", "payment_info": "Free", "accessible": "True", "radar": "False", "women": "True", "men": "True", "baby_change": "True", "Mon": "Unknown", "Tue": "Unknown", "Wed": "Unknown", "Thu": "Unknown", "Fri": "Unknown", "Sat": "Unknown", "Sun": "Unknown", "index_right": 115, "park_offical_id": "BRIST_26" }, "geometry": { "type": "Point", "coordinates": [ -2.58659631, 51.483429938 ] } },
{ "type": "Feature", "properties": { "name": "Horfield Leisure Centre", "payment_info": "Free", "accessible": "Unknown", "radar": "Unknown", "women": "True", "men": "True", "baby_change": "Unknown", "Mon": "Unknown", "Tue": "Unknown", "Wed": "Unknown", "Thu": "Unknown", "Fri": "Unknown", "Sat": "Unknown", "Sun": "Unknown", "index_right": 115, "park_offical_id": "BRIST_26" }, "geometry": { "type": "Point", "coordinates": [ -2.583823014, 51.493631387 ] } },
{ "type": "Feature", "properties": { "name": "Boston Tea Party 293 Gloucester Road BS7 8PE", "payment_info": "Free", "accessible": "True", "radar": "Unknown", "women": "True", "men": "True", "baby_change": "True", "Mon": "08:00-17:00", "Tue": "08:00-17:00", "Wed": "08:00-17:00", "Thu": "08:00-17:00", "Fri": "08:00-17:00", "Sat": "08:00-17:00", "Sun": "09:00-17:00", "index_right": 115, "park_offical_id": "BRIST_26" }, "geometry": { "type": "Point", "coordinates": [ -2.588618672, 51.480304031 ] } },
{ "type": "Feature", "properties": { "name": "Better Food Company", "payment_info": "Free", "accessible": "True", "radar": "False", "women": "True", "men": "True", "baby_change": "True", "Mon": "08:00-20:00", "Tue": "08:00-20:00", "Wed": "08:00-20:00", "Thu": "08:00-20:00", "Fri": "08:00-20:00", "Sat": "08:00-20:00", "Sun": "10:00-18:00", "index_right": 115, "park_offical_id": "BRIST_26" }, "geometry": { "type": "Point", "coordinates": [ -2.588565027, 51.480853335 ] } },
{ "type": "Feature", "properties": { "name": "Lazz Lounge", "payment_info": "Free", "accessible": "Unknown", "radar": "Unknown", "women": "True", "men": "True", "baby_change": "Unknown", "Mon": "Unknown", "Tue": "Unknown", "Wed": "Unknown", "Thu": "Unknown", "Fri": "Unknown", "Sat": "Unknown", "Sun": "Unknown", "index_right": 115, "park_offical_id": "BRIST_26" }, "geometry": { "type": "Point", "coordinates": [ -2.588795722, 51.480698028 ] } },
{ "type": "Feature", "properties": { "name": "Southmead Hospital", "payment_info": "Free", "accessible": "True", "radar": "True", "women": "True", "men": "True", "baby_change": "True", "Mon": "11:00-19:00", "Tue": "11:00-19:00", "Wed": "11:00-19:00", "Thu": "11:00-19:00", "Fri": "11:00-19:00", "Sat": "11:00-19:00", "Sun": "11:00-19:00", "index_right": 115, "park_offical_id": "BRIST_26" }, "geometry": { "type": "Point", "coordinates": [ -2.591204345, 51.49507941 ] } },
{ "type": "Feature", "properties": { "name": "Tesco Lime Trees Superstore", "payment_info": "Free", "accessible": "True", "radar": "False", "women": "True", "men": "True", "baby_change": "True", "Mon": "08:00-22:00", "Tue": "08:00-22:00", "Wed": "08:00-22:00", "Thu": "08:00-22:00", "Fri": "08:00-22:00", "Sat": "08:00-22:00", "Sun": "10:00-16:00", "index_right": 115, "park_offical_id": "BRIST_26" }, "geometry": { "type": "Point", "coordinates": [ -2.595511973, 51.485830631 ] } },
{ "type": "Feature", "properties": { "name": "Tinto Lounge", "payment_info": "Free", "accessible": "Unknown", "radar": "Unknown", "women": "True", "men": "True", "baby_change": "Unknown", "Mon": "Unknown", "Tue": "Unknown", "Wed": "Unknown", "Thu": "Unknown", "Fri": "Unknown", "Sat": "Unknown", "Sun": "Unknown", "index_right": 115, "park_offical_id": "BRIST_26" }, "geometry": { "type": "Point", "coordinates": [ -2.587482137, 51.483015 ] } },
{ "type": "Feature", "properties": { "name": "Horfield Common", "payment_info": "Free", "accessible": "True", "radar": "True", "women": "True", "men": "True", "baby_change": "False", "Mon": "09:00-17:00", "Tue": "09:00-17:00", "Wed": "09:00-17:00", "Thu": "09:00-17:00", "Fri": "09:00-17:00", "Sat": "09:00-17:00", "Sun": "09:00-17:00", "index_right": 115, "park_offical_id": "BRIST_26" }, "geometry": { "type": "Point", "coordinates": [ -2.593057752, 51.485075993 ] } },
{ "type": "Feature", "properties": { "name": "Pizzarova", "payment_info": "Free", "accessible": "True", "radar": "Unknown", "women": "True", "men": "True", "baby_change": "True", "Mon": "Unknown", "Tue": "Unknown", "Wed": "Unknown", "Thu": "Unknown", "Fri": "Unknown", "Sat": "Unknown", "Sun": "Unknown", "index_right": 115, "park_offical_id": "BRIST_26" }, "geometry": { "type": "Point", "coordinates": [ -2.588833255, 51.479989917 ] } }
]
}
