{
"type": "FeatureCollection",
"name": "BRIST_291_toilets",
"crs": { "type": "name", "properties": { "name": "urn:ogc:def:crs:OGC:1.3:CRS84" } },
"features": [
{ "type": "Feature", "properties": { "name": "Stoke Road Toilets", "payment_info": "Free", "accessible": "True", "radar": "True", "women": "True", "men": "True", "baby_change": "True", "Mon": "08:00-20:00", "Tue": "08:00-20:00", "Wed": "08:00-20:00", "Thu": "08:00-20:00", "Fri": "08:00-20:00", "Sat": "08:00-20:00", "Sun": "08:00-20:00", "index_right": 133, "park_offical_id": "BRIST_291" }, "geometry": { "type": "Point", "coordinates": [ -2.617684894, 51.471796894 ] } },
{ "type": "Feature", "properties": { "name": "Jersey Liley", "payment_info": "Free", "accessible": "False", "radar": "False", "women": "True", "men": "True", "baby_change": "Unknown", "Mon": "Unknown", "Tue": "Unknown", "Wed": "Unknown", "Thu": "Unknown", "Fri": "Unknown", "Sat": "Unknown", "Sun": "Unknown", "index_right": 133, "park_offical_id": "BRIST_291" }, "geometry": { "type": "Point", "coordinates": [ -2.61397649, 51.46945077 ] } },
{ "type": "Feature", "properties": { "name": "Steam", "payment_info": "Free", "accessible": "False", "radar": "False", "women": "True", "men": "True", "baby_change": "False", "Mon": "Unknown", "Tue": "Unknown", "Wed": "Unknown", "Thu": "Unknown", "Fri": "Unknown", "Sat": "Unknown", "Sun": "Unknown", "index_right": 133, "park_offical_id": "BRIST_291" }, "geometry": { "type": "Point", "coordinates": [ -2.611572932, 51.464544257 ] } },
{ "type": "Feature", "properties": { "name": "Bakesmiths 65 Whiteladies Road Redland BS8 2LY", "payment_info": "Free", "accessible": "False", "radar": "False", "women": "True", "men": "True", "baby_change": "True", "Mon": "Unknown", "Tue": "Unknown", "Wed": "Unknown", "Thu": "Unknown", "Fri": "Unknown", "Sat": "Unknown", "Sun": "Unknown", "index_right": 133, "park_offical_id": "BRIST_291" }, "geometry": { "type": "Point", "coordinates": [ -2.608547432, 51.462420928 ] } },
{ "type": "Feature", "properties": { "name": "Redland Library", "payment_info": "Free", "accessible": "Unknown", "radar": "Unknown", "women": "True", "men": "True", "baby_change": "Unknown", "Mon": "Unknown", "Tue": "Unknown", "Wed": "Unknown", "Thu": "Unknown", "Fri": "Unknown", "Sat": "Unknown", "Sun": "Unknown", "index_right": 133, "park_offical_id": "BRIST_291" }, "geometry": { "type": "Point", "coordinates": [ -2.610720144, 51.465302345 ] } },
{ "type": "Feature", "properties": { "name": "Sainsburys Clifton Down", "payment_info": "Free", "accessible": "True", "radar": "Unknown", "women": "True", "men": "True", "baby_change": "Unknown", "Mon": "08:00-22:00", "Tue": "08:00-22:00", "Wed": "08:00-22:00", "Thu": "08:00-22:00", "Fri": "08:00-22:00", "Sat": "08:00-22:00", "Sun": "11:00-17:00", "index_right": 133, "park_offical_id": "BRIST_291" }, "geometry": { "type": "Point", "coordinates": [ -2.610580623, 51.463962279 ] } }
]
}
