{
"type": "FeatureCollection",
"name": "EXETE_33_toilets",
"crs": { "type": "name", "properties": { "name": "urn:ogc:def:crs:OGC:1.3:CRS84" } },
"features": [
{ "type": "Feature", "properties": { "name": "Guildhall", "payment_info": "Free", "accessible": "Unknown", "radar": "Unknown", "women": "True", "men": "True", "baby_change": "Unknown", "Mon": "Unknown", "Tue": "Unknown", "Wed": "Unknown", "Thu": "Unknown", "Fri": "Unknown", "Sat": "Unknown", "Sun": "Unknown", "index_right": 52, "park_offical_id": "EXETE_33" }, "geometry": { "type": "Point", "coordinates": [ -3.533558249, 50.723654405 ] } },
{ "type": "Feature", "properties": { "name": "Marks and Spencers", "payment_info": "Free", "accessible": "Unknown", "radar": "Unknown", "women": "Unknown", "men": "Unknown", "baby_change": "Unknown", "Mon": "Unknown", "Tue": "Unknown", "Wed": "Unknown", "Thu": "Unknown", "Fri": "Unknown", "Sat": "Unknown", "Sun": "Unknown", "index_right": 52, "park_offical_id": "EXETE_33" }, "geometry": { "type": "Point", "coordinates": [ -3.531304359, 50.723823547 ] } },
{ "type": "Feature", "properties": { "name": "Burger King", "payment_info": "Free", "accessible": "Unknown", "radar": "Unknown", "women": "Unknown", "men": "Unknown", "baby_change": "Unknown", "Mon": "Unknown", "Tue": "Unknown", "Wed": "Unknown", "Thu": "Unknown", "Fri": "Unknown", "Sat": "Unknown", "Sun": "Unknown", "index_right": 52, "park_offical_id": "EXETE_33" }, "geometry": { "type": "Point", "coordinates": [ -3.537040234, 50.717464447 ] } },
{ "type": "Feature", "properties": { "name": "Unknown", "payment_info": "Free", "accessible": "False", "radar": "Unknown", "women": "Unknown", "men": "Unknown", "baby_change": "Unknown", "Mon": "Unknown", "Tue": "Unknown", "Wed": "Unknown", "Thu": "Unknown", "Fri": "Unknown", "Sat": "Unknown", "Sun": "Unknown", "index_right": 52, "park_offical_id": "EXETE_33" }, "geometry": { "type": "Point", "coordinates": [ -3.5449766, 50.7170479 ] } },
{ "type": "Feature", "properties": { "name": "Catherine Square", "payment_info": "20p", "accessible": "False", "radar": "False", "women": "True", "men": "True", "baby_change": "True", "Mon": "07:00-19:00", "Tue": "07:00-19:00", "Wed": "07:00-19:00", "Thu": "07:00-19:00", "Fri": "07:00-19:00", "Sat": "07:00-19:00", "Sun": "07:00-17:00", "index_right": 52, "park_offical_id": "EXETE_33" }, "geometry": { "type": "Point", "coordinates": [ -3.529818, 50.7238907 ] } },
{ "type": "Feature", "properties": { "name": "Exeter Quay Public Toulets", "payment_info": "Free", "accessible": "True", "radar": "True", "women": "True", "men": "True", "baby_change": "Unknown", "Mon": "07:00-19:00", "Tue": "07:00-19:00", "Wed": "07:00-19:00", "Thu": "07:00-19:00", "Fri": "07:00-19:00", "Sat": "07:00-19:00", "Sun": "07:00-19:00", "index_right": 52, "park_offical_id": "EXETE_33" }, "geometry": { "type": "Point", "coordinates": [ -3.529894352, 50.718247021 ] } },
{ "type": "Feature", "properties": { "name": "St Stephens House Changing Places and Baby Change", "payment_info": "Free", "accessible": "True", "radar": "Unknown", "women": "True", "men": "True", "baby_change": "True", "Mon": "00:01-00:00", "Tue": "00:01-00:00", "Wed": "00:01-00:00", "Thu": "00:01-00:00", "Fri": "00:01-00:00", "Sat": "00:01-00:00", "Sun": "00:01-00:00", "index_right": 52, "park_offical_id": "EXETE_33" }, "geometry": { "type": "Point", "coordinates": [ -3.5294284, 50.7239839 ] } }
]
}
