{
"type": "FeatureCollection",
"name": "TORBA_90_toilets",
"crs": { "type": "name", "properties": { "name": "urn:ogc:def:crs:OGC:1.3:CRS84" } },
"features": [
{ "type": "Feature", "properties": { "name": "Unknown", "payment_info": "Free", "accessible": "False", "radar": "Unknown", "women": "Unknown", "men": "Unknown", "baby_change": "Unknown", "Mon": "Unknown", "Tue": "Unknown", "Wed": "Unknown", "Thu": "Unknown", "Fri": "Unknown", "Sat": "Unknown", "Sun": "Unknown", "index_right": 101, "park_offical_id": "TORBA_90" }, "geometry": { "type": "Point", "coordinates": [ -3.5805903, 50.426488 ] } },
{ "type": "Feature", "properties": { "name": "Festival Apollo", "payment_info": "Free", "accessible": "False", "radar": "Unknown", "women": "True", "men": "True", "baby_change": "Unknown", "Mon": "09:00-20:00", "Tue": "09:00-20:00", "Wed": "09:00-20:00", "Thu": "09:00-20:00", "Fri": "09:00-20:00", "Sat": "09:00-20:00", "Sun": "09:00-20:00", "index_right": 101, "park_offical_id": "TORBA_90" }, "geometry": { "type": "Point", "coordinates": [ -3.564235, 50.43508 ] } },
{ "type": "Feature", "properties": { "name": "Paignton National Rail Station", "payment_info": "Free", "accessible": "True", "radar": "True", "women": "True", "men": "True", "baby_change": "True", "Mon": "08:45-16:30", "Tue": "08:45-16:30", "Wed": "08:45-16:30", "Thu": "08:45-16:30", "Fri": "08:45-16:30", "Sat": "08:45-16:30", "Sun": "10:10-16:30", "index_right": 101, "park_offical_id": "TORBA_90" }, "geometry": { "type": "Point", "coordinates": [ -3.565444032, 50.43374315 ] } },
{ "type": "Feature", "properties": { "name": "Unknown", "payment_info": "Free", "accessible": "False", "radar": "Unknown", "women": "Unknown", "men": "Unknown", "baby_change": "Unknown", "Mon": "Unknown", "Tue": "Unknown", "Wed": "Unknown", "Thu": "Unknown", "Fri": "Unknown", "Sat": "Unknown", "Sun": "Unknown", "index_right": 101, "park_offical_id": "TORBA_90" }, "geometry": { "type": "Point", "coordinates": [ -3.5658314, 50.4337894 ] } },
{ "type": "Feature", "properties": { "name": "Palace Avenue", "payment_info": "20p", "accessible": "True", "radar": "False", "women": "True", "men": "True", "baby_change": "Unknown", "Mon": "Unknown", "Tue": "Unknown", "Wed": "Unknown", "Thu": "Unknown", "Fri": "Unknown", "Sat": "Unknown", "Sun": "Unknown", "index_right": 101, "park_offical_id": "TORBA_90" }, "geometry": { "type": "Point", "coordinates": [ -3.5707526, 50.4352518 ] } },
{ "type": "Feature", "properties": { "name": "Unknown", "payment_info": "Free", "accessible": "False", "radar": "Unknown", "women": "Unknown", "men": "Unknown", "baby_change": "Unknown", "Mon": "Unknown", "Tue": "Unknown", "Wed": "Unknown", "Thu": "Unknown", "Fri": "Unknown", "Sat": "Unknown", "Sun": "Unknown", "index_right": 101, "park_offical_id": "TORBA_90" }, "geometry": { "type": "Point", "coordinates": [ -3.57934306, 50.42752322 ] } },
{ "type": "Feature", "properties": { "name": "Unknown", "payment_info": "Free", "accessible": "False", "radar": "Unknown", "women": "Unknown", "men": "Unknown", "baby_change": "Unknown", "Mon": "Unknown", "Tue": "Unknown", "Wed": "Unknown", "Thu": "Unknown", "Fri": "Unknown", "Sat": "Unknown", "Sun": "Unknown", "index_right": 101, "park_offical_id": "TORBA_90" }, "geometry": { "type": "Point", "coordinates": [ -3.5796468, 50.425896 ] } },
{ "type": "Feature", "properties": { "name": "Unknown", "payment_info": "Free", "accessible": "False", "radar": "Unknown", "women": "Unknown", "men": "Unknown", "baby_change": "Unknown", "Mon": "Unknown", "Tue": "Unknown", "Wed": "Unknown", "Thu": "Unknown", "Fri": "Unknown", "Sat": "Unknown", "Sun": "Unknown", "index_right": 101, "park_offical_id": "TORBA_90" }, "geometry": { "type": "Point", "coordinates": [ -3.582832, 50.4274007 ] } }
]
}
