{
"type": "FeatureCollection",
"name": "NORSO_183_toilets",
"crs": { "type": "name", "properties": { "name": "urn:ogc:def:crs:OGC:1.3:CRS84" } },
"features": [
{ "type": "Feature", "properties": { "name": "Weston Water Park", "payment_info": "Free", "accessible": "True", "radar": "False", "women": "True", "men": "True", "baby_change": "False", "Mon": "09:00-17:00", "Tue": "09:00-17:00", "Wed": "09:00-17:00", "Thu": "09:00-17:00", "Fri": "09:00-17:00", "Sat": "09:00-17:00", "Sun": "09:00-17:00", "index_right": 35, "park_offical_id": "NORSO_183" }, "geometry": { "type": "Point", "coordinates": [ -2.984649539, 51.351989624 ] } },
{ "type": "Feature", "properties": { "name": "Seafront Office", "payment_info": "Free", "accessible": "False", "radar": "Unknown", "women": "Unknown", "men": "Unknown", "baby_change": "Unknown", "Mon": "Unknown", "Tue": "Unknown", "Wed": "Unknown", "Thu": "Unknown", "Fri": "Unknown", "Sat": "Unknown", "Sun": "Unknown", "index_right": 35, "park_offical_id": "NORSO_183" }, "geometry": { "type": "Point", "coordinates": [ -2.981588231, 51.344235092 ] } },
{ "type": "Feature", "properties": { "name": "Locking Road car park", "payment_info": "Free", "accessible": "False", "radar": "Unknown", "women": "Unknown", "men": "Unknown", "baby_change": "Unknown", "Mon": "08:00-20:00", "Tue": "08:00-20:00", "Wed": "08:00-20:00", "Thu": "08:00-20:00", "Fri": "08:00-20:00", "Sat": "08:00-20:00", "Sun": "08:00-20:00", "index_right": 35, "park_offical_id": "NORSO_183" }, "geometry": { "type": "Point", "coordinates": [ -2.971228, 51.345909 ] } },
{ "type": "Feature", "properties": { "name": "Weston Super Mare Public Toilet", "payment_info": "0020", "accessible": "True", "radar": "False", "women": "True", "men": "True", "baby_change": "True", "Mon": "09:00-17:00", "Tue": "09:00-17:00", "Wed": "09:00-17:00", "Thu": "09:00-17:00", "Fri": "09:00-17:00", "Sat": "09:00-17:00", "Sun": "09:00-17:00", "index_right": 35, "park_offical_id": "NORSO_183" }, "geometry": { "type": "Point", "coordinates": [ -2.981613278, 51.346025769 ] } },
{ "type": "Feature", "properties": { "name": "Cabot Court Weatherspoons", "payment_info": "Free", "accessible": "True", "radar": "False", "women": "True", "men": "True", "baby_change": "True", "Mon": "09:00-17:00", "Tue": "09:00-17:00", "Wed": "09:00-17:00", "Thu": "09:00-17:00", "Fri": "09:00-17:00", "Sat": "09:00-17:00", "Sun": "09:00-17:00", "index_right": 35, "park_offical_id": "NORSO_183" }, "geometry": { "type": "Point", "coordinates": [ -2.982434034, 51.350493708 ] } },
{ "type": "Feature", "properties": { "name": "Grove Park", "payment_info": "020", "accessible": "False", "radar": "Unknown", "women": "True", "men": "True", "baby_change": "Unknown", "Mon": "Unknown", "Tue": "Unknown", "Wed": "Unknown", "Thu": "Unknown", "Fri": "Unknown", "Sat": "Unknown", "Sun": "Unknown", "index_right": 35, "park_offical_id": "NORSO_183" }, "geometry": { "type": "Point", "coordinates": [ -2.97941686, 51.35148196 ] } },
{ "type": "Feature", "properties": { "name": "Sanatorium", "payment_info": "Free", "accessible": "False", "radar": "Unknown", "women": "Unknown", "men": "Unknown", "baby_change": "Unknown", "Mon": "08:00-20:00", "Tue": "08:00-20:00", "Wed": "08:00-20:00", "Thu": "08:00-20:00", "Fri": "08:00-20:00", "Sat": "08:00-20:00", "Sun": "08:00-20:00", "index_right": 35, "park_offical_id": "NORSO_183" }, "geometry": { "type": "Point", "coordinates": [ -2.977255, 51.347405 ] } },
{ "type": "Feature", "properties": { "name": "Town Hall", "payment_info": "Free", "accessible": "True", "radar": "Unknown", "women": "True", "men": "True", "baby_change": "True", "Mon": "09:00-17:00", "Tue": "09:00-17:00", "Wed": "09:00-17:00", "Thu": "09:00-17:00", "Fri": "09:00-17:00", "Sat": "09:00-17:00", "Sun": "09:00-17:00", "index_right": 35, "park_offical_id": "NORSO_183" }, "geometry": { "type": "Point", "coordinates": [ -2.977252007, 51.345565045 ] } },
{ "type": "Feature", "properties": { "name": "Sovereign Centre", "payment_info": "Free", "accessible": "False", "radar": "True", "women": "True", "men": "True", "baby_change": "True", "Mon": "09:00-17:00", "Tue": "09:00-17:00", "Wed": "09:00-17:00", "Thu": "09:00-17:00", "Fri": "09:00-17:00", "Sat": "09:00-17:00", "Sun": "09:00-17:00", "index_right": 35, "park_offical_id": "NORSO_183" }, "geometry": { "type": "Point", "coordinates": [ -2.980502844, 51.348403028 ] } }
]
}
