{
"type": "FeatureCollection",
"name": "CORNW_1_toilets",
"crs": { "type": "name", "properties": { "name": "urn:ogc:def:crs:OGC:1.3:CRS84" } },
"features": [
{ "type": "Feature", "properties": { "name": "Costa Coffee Toilets", "payment_info": "Free", "accessible": "False", "radar": "Unknown", "women": "True", "men": "True", "baby_change": "Unknown", "Mon": "09:00-17:00", "Tue": "09:00-17:00", "Wed": "09:00-17:00", "Thu": "09:00-17:00", "Fri": "09:00-17:00", "Sat": "09:00-17:00", "Sun": "09:00-17:00", "index_right": 1, "park_offical_id": "CORNW_1" }, "geometry": { "type": "Point", "coordinates": [ -5.297654629, 50.214040116 ] } },
{ "type": "Feature", "properties": { "name": "Camborne Park", "payment_info": "Free", "accessible": "True", "radar": "Unknown", "women": "True", "men": "True", "baby_change": "Unknown", "Mon": "09:00-18:00", "Tue": "09:00-18:00", "Wed": "09:00-18:00", "Thu": "09:00-18:00", "Fri": "09:00-18:00", "Sat": "09:00-18:00", "Sun": "09:00-18:00", "index_right": 1, "park_offical_id": "CORNW_1" }, "geometry": { "type": "Point", "coordinates": [ -5.307962894, 50.21197692 ] } },
{ "type": "Feature", "properties": { "name": "White Hart Toilets", "payment_info": "Free", "accessible": "False", "radar": "False", "women": "True", "men": "True", "baby_change": "False", "Mon": "09:00-17:00", "Tue": "09:00-17:00", "Wed": "09:00-17:00", "Thu": "09:00-17:00", "Fri": "09:00-17:00", "Sat": "09:00-17:00", "Sun": "09:00-17:00", "index_right": 1, "park_offical_id": "CORNW_1" }, "geometry": { "type": "Point", "coordinates": [ -5.300220967, 50.213797445 ] } },
{ "type": "Feature", "properties": { "name": "Trevithick Market Toilets", "payment_info": "Free", "accessible": "False", "radar": "Unknown", "women": "Unknown", "men": "Unknown", "baby_change": "Unknown", "Mon": "Unknown", "Tue": "Unknown", "Wed": "Unknown", "Thu": "Unknown", "Fri": "Unknown", "Sat": "Unknown", "Sun": "Unknown", "index_right": 1, "park_offical_id": "CORNW_1" }, "geometry": { "type": "Point", "coordinates": [ -5.300338983, 50.214646886 ] } },
{ "type": "Feature", "properties": { "name": "Cafe Soul Toilets", "payment_info": "Free", "accessible": "False", "radar": "Unknown", "women": "True", "men": "True", "baby_change": "Unknown", "Mon": "09:00-17:00", "Tue": "09:00-17:00", "Wed": "09:00-17:00", "Thu": "09:00-17:00", "Fri": "09:00-17:00", "Sat": "09:00-17:00", "Sun": "09:00-17:00", "index_right": 1, "park_offical_id": "CORNW_1" }, "geometry": { "type": "Point", "coordinates": [ -5.300409794, 50.212501657 ] } },
{ "type": "Feature", "properties": { "name": "Scallywags Coffee Shop Toilets", "payment_info": "Free", "accessible": "False", "radar": "Unknown", "women": "True", "men": "True", "baby_change": "Unknown", "Mon": "Unknown", "Tue": "Unknown", "Wed": "Unknown", "Thu": "Unknown", "Fri": "Unknown", "Sat": "Unknown", "Sun": "Unknown", "index_right": 1, "park_offical_id": "CORNW_1" }, "geometry": { "type": "Point", "coordinates": [ -5.297060251, 50.214228648 ] } }
]
}
